{
  "boards": [
    {
      "boardId": 10,
      "writerId": 17,
      "writerNickName": "ooo",
      "ratingScore": 5,
      "title": "우산 팔아요!",
      "content": "3회 미만 사용했습니다",
      "startTimeString": "2024-05-21-10:00",
      "endTimeString": "2024-05-21-10:30",
      "imgUrl": "https://img.danawa.com/prod_img/500000/393/837/img/29837393_1.jpg?_v=20231107131415",
      "address": {
        "name": "숭실대학교 정보과학관",
        "latitude": 37.4958,
        "longitude": 126.9583,
        "street": "서울 동작구 사당로 50"
      },
      "createdAt": "2024-05-30T02:17:32.33273",
      "updateAt": "2024-05-30T02:17:32.33273",
      "price": 1000,
      "freebie": false
    },
    {
      "boardId": 20,
      "writerId": 37,
      "writerNickName": "oo",
      "ratingScore": 4.5,
      "title": "안쓰는 우산 내놓아요",
      "content": "우산 급히 필요하신 분 저렴히 가져가세요~",
      "startTimeString": "2024-05-21-10:00",
      "endTimeString": "2024-05-21-10:10",
      "imgUrl": null,
      "address": {
        "name": "훈감상회",
        "latitude": 37.4958,
        "longitude": 126.9583,
        "street": "서울 서초구 동광로7길 33"
      },
      "createdAt": "2024-05-30T03:02:48.083084",
      "updateAt": "2024-05-30T03:02:48.083084",
      "price": 2000,
      "freebie": false
    }
  ],
  "paths": [
    {
      "pathId": 1,
      "routeRequesterId": null,
      "totalTime": 19,
      "price": 1400,
      "totalDistance": 6820,
      "totalWalkDistance": 620,
      "totalWalkTime": 18,
      "totalRain": 2.67,
      "busTransitCount": 0,
      "subwayTransitCount": 1,
      "totalTransitCount": 1,
      "busStationCount": 0,
      "subwayStationCount": 4,
      "startDto": {
        "name": "신세계 백화점",
        "latitude": 37.5042,
        "longitude": 127.0044,
        "x": 60,
        "y": 125
      },
      "endDto": {
        "name": "숭실대 정보관",
        "latitude": 37.4947,
        "longitude": 126.9599,
        "x": 60,
        "y": 125
      },
      "midDto": {
        "name": null,
        "latitude": 37.499449999999996,
        "longitude": 126.98215,
        "x": 60,
        "y": 125
      },
      "subPathDtos": [
        {
          "subPathId": null,
          "pathId": null,
          "type": "walk",
          "distance": 82,
          "time": 1,
          "stationCount": 0,
          "subwayName": "null",
          "busNo": "null",
          "subwayColor": "#000000",
          "busColor": "#000000",
          "startDto": {
            "name": "신세계 백화점",
            "latitude": 37.5042,
            "longitude": 127.0044,
            "x": 60,
            "y": 125
          },
          "endDto": {
            "name": "고속터미널",
            "latitude": 37.503471,
            "longitude": 127.004524,
            "x": 60,
            "y": 125
          },
          "midDto": {
            "name": null,
            "latitude": 37.503835499999994,
            "longitude": 127.004462,
            "x": 60,
            "y": 125
          },
          "pointDtos": []
        },
        {
          "subPathId": null,
          "pathId": null,
          "type": "subway",
          "distance": 6200,
          "time": 10,
          "stationCount": 4,
          "subwayName": "수도권 7호선",
          "busNo": "null",
          "subwayColor": "#747F00",
          "busColor": "#000000",
          "startDto": {
            "name": "고속터미널",
            "latitude": 37.503471,
            "longitude": 127.004524,
            "x": 60,
            "y": 125
          },
          "endDto": {
            "name": "숭실대입구",
            "latitude": 37.495861,
            "longitude": 126.953991,
            "x": 59,
            "y": 125
          },
          "midDto": {
            "name": null,
            "latitude": 37.499666,
            "longitude": 126.9792575,
            "x": 60,
            "y": 125
          },
          "pointDtos": [
            {
              "pointInformationDto": {
                "name": "고속터미널",
                "latitude": 37.503471,
                "longitude": 127.004524,
                "x": 60,
                "y": 125
              },
              "subPathId": null
            },
            {
              "pointInformationDto": {
                "name": "내방",
                "latitude": 37.487625,
                "longitude": 126.993503,
                "x": 60,
                "y": 125
              },
              "subPathId": null
            },
            {
              "pointInformationDto": {
                "name": "이수",
                "latitude": 37.485386,
                "longitude": 126.982067,
                "x": 60,
                "y": 125
              },
              "subPathId": null
            },
            {
              "pointInformationDto": {
                "name": "남성",
                "latitude": 37.484749,
                "longitude": 126.971052,
                "x": 60,
                "y": 125
              },
              "subPathId": null
            },
            {
              "pointInformationDto": {
                "name": "숭실대입구",
                "latitude": 37.495861,
                "longitude": 126.953991,
                "x": 59,
                "y": 125
              },
              "subPathId": null
            }
          ]
        },
        {
          "subPathId": null,
          "pathId": null,
          "type": "walk",
          "distance": 538,
          "time": 8,
          "stationCount": 0,
          "subwayName": "null",
          "busNo": "null",
          "subwayColor": "#000000",
          "busColor": "#000000",
          "startDto": {
            "name": "숭실대입구",
            "latitude": 37.495861,
            "longitude": 126.953991,
            "x": 59,
            "y": 125
          },
          "endDto": {
            "name": "숭실대 정보관",
            "latitude": 37.4947,
            "longitude": 126.9599,
            "x": 60,
            "y": 125
          },
          "midDto": {
            "name": null,
            "latitude": 37.4952805,
            "longitude": 126.9569455,
            "x": 59,
            "y": 125
          },
          "pointDtos": []
        }
      ]
    },
    {
      "pathId": 2,
      "routeRequesterId": null,
      "totalTime": 25,
      "price": 1400,
      "totalDistance": 7321,
      "totalWalkDistance": 582,
      "totalWalkTime": 18,
      "totalRain": 2.33,
      "busTransitCount": 1,
      "subwayTransitCount": 1,
      "totalTransitCount": 2,
      "busStationCount": 1,
      "subwayStationCount": 4,
      "startDto": {
        "name": "신세계 백화점",
        "latitude": 37.5042,
        "longitude": 127.0044,
        "x": 60,
        "y": 125
      },
      "endDto": {
        "name": "숭실대 정보관",
        "latitude": 37.4947,
        "longitude": 126.9599,
        "x": 60,
        "y": 125
      },
      "midDto": {
        "name": null,
        "latitude": 37.499449999999996,
        "longitude": 126.98215,
        "x": 60,
        "y": 125
      },
      "subPathDtos": [
        {
          "subPathId": null,
          "pathId": null,
          "type": "walk",
          "distance": 82,
          "time": 1,
          "stationCount": 0,
          "subwayName": "null",
          "busNo": "null",
          "subwayColor": "#000000",
          "busColor": "#000000",
          "startDto": {
            "name": "신세계 백화점",
            "latitude": 37.5042,
            "longitude": 127.0044,
            "x": 60,
            "y": 125
          },
          "endDto": {
            "name": "고속터미널",
            "latitude": 37.503471,
            "longitude": 127.004524,
            "x": 60,
            "y": 125
          },
          "midDto": {
            "name": null,
            "latitude": 37.503835499999994,
            "longitude": 127.004462,
            "x": 60,
            "y": 125
          },
          "pointDtos": []
        },
        {
          "subPathId": null,
          "pathId": null,
          "type": "subway",
          "distance": 6200,
          "time": 10,
          "stationCount": 4,
          "subwayName": "수도권 7호선",
          "busNo": "null",
          "subwayColor": "#747F00",
          "busColor": "#000000",
          "startDto": {
            "name": "고속터미널",
            "latitude": 37.503471,
            "longitude": 127.004524,
            "x": 60,
            "y": 125
          },
          "endDto": {
            "name": "숭실대입구",
            "latitude": 37.495861,
            "longitude": 126.953991,
            "x": 59,
            "y": 125
          },
          "midDto": {
            "name": null,
            "latitude": 37.499666,
            "longitude": 126.9792575,
            "x": 60,
            "y": 125
          },
          "pointDtos": [
            {
              "pointInformationDto": {
                "name": "고속터미널",
                "latitude": 37.503471,
                "longitude": 127.004524,
                "x": 60,
                "y": 125
              },
              "subPathId": null
            },
            {
              "pointInformationDto": {
                "name": "내방",
                "latitude": 37.487625,
                "longitude": 126.993503,
                "x": 60,
                "y": 125
              },
              "subPathId": null
            },
            {
              "pointInformationDto": {
                "name": "이수",
                "latitude": 37.485386,
                "longitude": 126.982067,
                "x": 60,
                "y": 125
              },
              "subPathId": null
            },
            {
              "pointInformationDto": {
                "name": "남성",
                "latitude": 37.484749,
                "longitude": 126.971052,
                "x": 60,
                "y": 125
              },
              "subPathId": null
            },
            {
              "pointInformationDto": {
                "name": "숭실대입구",
                "latitude": 37.495861,
                "longitude": 126.953991,
                "x": 59,
                "y": 125
              },
              "subPathId": null
            }
          ]
        },
        {
          "subPathId": null,
          "pathId": null,
          "type": "walk",
          "distance": 26,
          "time": 1,
          "stationCount": 0,
          "subwayName": "null",
          "busNo": "null",
          "subwayColor": "#000000",
          "busColor": "#000000",
          "startDto": {
            "name": "고속터미널",
            "latitude": 37.503471,
            "longitude": 127.004524,
            "x": 60,
            "y": 125
          },
          "endDto": {
            "name": "숭실대입구역2번출구",
            "latitude": 37.495931,
            "longitude": 126.953718,
            "x": 59,
            "y": 125
          },
          "midDto": {
            "name": null,
            "latitude": 37.499701,
            "longitude": 126.97912099999999,
            "x": 60,
            "y": 125
          },
          "pointDtos": []
        },
        {
          "subPathId": null,
          "pathId": null,
          "type": "bus",
          "distance": 539,
          "time": 6,
          "stationCount": 1,
          "subwayName": "null",
          "busNo": "관악01",
          "subwayColor": "#000000",
          "busColor": "#ffc600",
          "startDto": {
            "name": "숭실대입구역2번출구",
            "latitude": 37.495931,
            "longitude": 126.953718,
            "x": 59,
            "y": 125
          },
          "endDto": {
            "name": "봉천고개현대아파트",
            "latitude": 37.491717,
            "longitude": 126.956061,
            "x": 59,
            "y": 125
          },
          "midDto": {
            "name": null,
            "latitude": 37.493824000000004,
            "longitude": 126.95488950000001,
            "x": 59,
            "y": 125
          },
          "pointDtos": [
            {
              "pointInformationDto": {
                "name": "숭실대입구역2번출구",
                "latitude": 37.495931,
                "longitude": 126.953718,
                "x": 59,
                "y": 125
              },
              "subPathId": null
            },
            {
              "pointInformationDto": {
                "name": "봉천고개현대아파트",
                "latitude": 37.491717,
                "longitude": 126.956061,
                "x": 59,
                "y": 125
              },
              "subPathId": null
            }
          ]
        },
        {
          "subPathId": null,
          "pathId": null,
          "type": "walk",
          "distance": 474,
          "time": 7,
          "stationCount": 0,
          "subwayName": "null",
          "busNo": "null",
          "subwayColor": "#000000",
          "busColor": "#000000",
          "startDto": {
            "name": "봉천고개현대아파트",
            "latitude": 37.491717,
            "longitude": 126.956061,
            "x": 59,
            "y": 125
          },
          "endDto": {
            "name": "숭실대 정보관",
            "latitude": 37.4947,
            "longitude": 126.9599,
            "x": 60,
            "y": 125
          },
          "midDto": {
            "name": null,
            "latitude": 37.4932085,
            "longitude": 126.9579805,
            "x": 59,
            "y": 125
          },
          "pointDtos": []
        }
      ]
    },
    {
      "pathId": 3,
      "routeRequesterId": null,
      "totalTime": 20,
      "price": 1500,
      "totalDistance": 5882,
      "totalWalkDistance": 153,
      "totalWalkTime": 6,
      "totalRain": 0,
      "busTransitCount": 1,
      "subwayTransitCount": 1,
      "totalTransitCount": 2,
      "busStationCount": 4,
      "subwayStationCount": 3,
      "startDto": {
        "name": "신세계 백화점",
        "latitude": 37.5042,
        "longitude": 127.0044,
        "x": 60,
        "y": 125
      },
      "endDto": {
        "name": "숭실대 정보관",
        "latitude": 37.4947,
        "longitude": 126.9599,
        "x": 60,
        "y": 125
      },
      "midDto": {
        "name": null,
        "latitude": 37.499449999999996,
        "longitude": 126.98215,
        "x": 60,
        "y": 125
      },
      "subPathDtos": [
        {
          "subPathId": null,
          "pathId": null,
          "type": "walk",
          "distance": 82,
          "time": 1,
          "stationCount": 0,
          "subwayName": "null",
          "busNo": "null",
          "subwayColor": "#000000",
          "busColor": "#000000",
          "startDto": {
            "name": "신세계 백화점",
            "latitude": 37.5042,
            "longitude": 127.0044,
            "x": 60,
            "y": 125
          },
          "endDto": {
            "name": "고속터미널",
            "latitude": 37.503471,
            "longitude": 127.004524,
            "x": 60,
            "y": 125
          },
          "midDto": {
            "name": null,
            "latitude": 37.503835499999994,
            "longitude": 127.004462,
            "x": 60,
            "y": 125
          },
          "pointDtos": []
        },
        {
          "subPathId": null,
          "pathId": null,
          "type": "subway",
          "distance": 4200,
          "time": 7,
          "stationCount": 3,
          "subwayName": "수도권 7호선",
          "busNo": "null",
          "subwayColor": "#747F00",
          "busColor": "#000000",
          "startDto": {
            "name": "고속터미널",
            "latitude": 37.503471,
            "longitude": 127.004524,
            "x": 60,
            "y": 125
          },
          "endDto": {
            "name": "남성",
            "latitude": 37.484749,
            "longitude": 126.971052,
            "x": 60,
            "y": 125
          },
          "midDto": {
            "name": null,
            "latitude": 37.49411,
            "longitude": 126.987788,
            "x": 60,
            "y": 125
          },
          "pointDtos": [
            {
              "pointInformationDto": {
                "name": "고속터미널",
                "latitude": 37.503471,
                "longitude": 127.004524,
                "x": 60,
                "y": 125
              },
              "subPathId": null
            },
            {
              "pointInformationDto": {
                "name": "내방",
                "latitude": 37.487625,
                "longitude": 126.993503,
                "x": 60,
                "y": 125
              },
              "subPathId": null
            },
            {
              "pointInformationDto": {
                "name": "이수",
                "latitude": 37.485386,
                "longitude": 126.982067,
                "x": 60,
                "y": 125
              },
              "subPathId": null
            },
            {
              "pointInformationDto": {
                "name": "남성",
                "latitude": 37.484749,
                "longitude": 126.971052,
                "x": 60,
                "y": 125
              },
              "subPathId": null
            }
          ]
        },
        {
          "subPathId": null,
          "pathId": null,
          "type": "walk",
          "distance": 40,
          "time": 1,
          "stationCount": 0,
          "subwayName": "null",
          "busNo": "null",
          "subwayColor": "#000000",
          "busColor": "#000000",
          "startDto": {
            "name": "고속터미널",
            "latitude": 37.503471,
            "longitude": 127.004524,
            "x": 60,
            "y": 125
          },
          "endDto": {
            "name": "남성역",
            "latitude": 37.484979,
            "longitude": 126.970707,
            "x": 60,
            "y": 125
          },
          "midDto": {
            "name": null,
            "latitude": 37.494225,
            "longitude": 126.9876155,
            "x": 60,
            "y": 125
          },
          "pointDtos": []
        },
        {
          "subPathId": null,
          "pathId": null,
          "type": "bus",
          "distance": 1529,
          "time": 10,
          "stationCount": 4,
          "subwayName": "null",
          "busNo": "752",
          "subwayColor": "#000000",
          "busColor": "#0068b7",
          "startDto": {
            "name": "남성역",
            "latitude": 37.484979,
            "longitude": 126.970707,
            "x": 60,
            "y": 125
          },
          "endDto": {
            "name": "숭실대별관앞",
            "latitude": 37.494977,
            "longitude": 126.959951,
            "x": 60,
            "y": 125
          },
          "midDto": {
            "name": null,
            "latitude": 37.489978,
            "longitude": 126.965329,
            "x": 60,
            "y": 125
          },
          "pointDtos": [
            {
              "pointInformationDto": {
                "name": "남성역",
                "latitude": 37.484979,
                "longitude": 126.970707,
                "x": 60,
                "y": 125
              },
              "subPathId": null
            },
            {
              "pointInformationDto": {
                "name": "사당중학교",
                "latitude": 37.486678,
                "longitude": 126.968185,
                "x": 60,
                "y": 125
              },
              "subPathId": null
            },
            {
              "pointInformationDto": {
                "name": "총신대",
                "latitude": 37.488787,
                "longitude": 126.966143,
                "x": 60,
                "y": 125
              },
              "subPathId": null
            },
            {
              "pointInformationDto": {
                "name": "사당롯데캐슬골든포레.사당해그린",
                "latitude": 37.492323,
                "longitude": 126.963527,
                "x": 60,
                "y": 125
              },
              "subPathId": null
            },
            {
              "pointInformationDto": {
                "name": "숭실대별관앞",
                "latitude": 37.494977,
                "longitude": 126.959951,
                "x": 60,
                "y": 125
              },
              "subPathId": null
            }
          ]
        },
        {
          "subPathId": null,
          "pathId": null,
          "type": "walk",
          "distance": 31,
          "time": 1,
          "stationCount": 0,
          "subwayName": "null",
          "busNo": "null",
          "subwayColor": "#000000",
          "busColor": "#000000",
          "startDto": {
            "name": "숭실대별관앞",
            "latitude": 37.494977,
            "longitude": 126.959951,
            "x": 60,
            "y": 125
          },
          "endDto": {
            "name": "숭실대 정보관",
            "latitude": 37.4947,
            "longitude": 126.9599,
            "x": 60,
            "y": 125
          },
          "midDto": {
            "name": null,
            "latitude": 37.4948385,
            "longitude": 126.9599255,
            "x": 60,
            "y": 125
          },
          "pointDtos": []
        }
      ]
    },
    {
      "pathId": 4,
      "routeRequesterId": null,
      "totalTime": 25,
      "price": 1500,
      "totalDistance": 7384,
      "totalWalkDistance": 612,
      "totalWalkTime": 18,
      "totalRain": 2.33,
      "busTransitCount": 1,
      "subwayTransitCount": 1,
      "totalTransitCount": 2,
      "busStationCount": 1,
      "subwayStationCount": 4,
      "startDto": {
        "name": "신세계 백화점",
        "latitude": 37.5042,
        "longitude": 127.0044,
        "x": 60,
        "y": 125
      },
      "endDto": {
        "name": "숭실대 정보관",
        "latitude": 37.4947,
        "longitude": 126.9599,
        "x": 60,
        "y": 125
      },
      "midDto": {
        "name": null,
        "latitude": 37.499449999999996,
        "longitude": 126.98215,
        "x": 60,
        "y": 125
      },
      "subPathDtos": [
        {
          "subPathId": null,
          "pathId": null,
          "type": "walk",
          "distance": 82,
          "time": 1,
          "stationCount": 0,
          "subwayName": "null",
          "busNo": "null",
          "subwayColor": "#000000",
          "busColor": "#000000",
          "startDto": {
            "name": "신세계 백화점",
            "latitude": 37.5042,
            "longitude": 127.0044,
            "x": 60,
            "y": 125
          },
          "endDto": {
            "name": "고속터미널",
            "latitude": 37.503471,
            "longitude": 127.004524,
            "x": 60,
            "y": 125
          },
          "midDto": {
            "name": null,
            "latitude": 37.503835499999994,
            "longitude": 127.004462,
            "x": 60,
            "y": 125
          },
          "pointDtos": []
        },
        {
          "subPathId": null,
          "pathId": null,
          "type": "subway",
          "distance": 6200,
          "time": 10,
          "stationCount": 4,
          "subwayName": "수도권 7호선",
          "busNo": "null",
          "subwayColor": "#747F00",
          "busColor": "#000000",
          "startDto": {
            "name": "고속터미널",
            "latitude": 37.503471,
            "longitude": 127.004524,
            "x": 60,
            "y": 125
          },
          "endDto": {
            "name": "숭실대입구",
            "latitude": 37.495861,
            "longitude": 126.953991,
            "x": 59,
            "y": 125
          },
          "midDto": {
            "name": null,
            "latitude": 37.499666,
            "longitude": 126.9792575,
            "x": 60,
            "y": 125
          },
          "pointDtos": [
            {
              "pointInformationDto": {
                "name": "고속터미널",
                "latitude": 37.503471,
                "longitude": 127.004524,
                "x": 60,
                "y": 125
              },
              "subPathId": null
            },
            {
              "pointInformationDto": {
                "name": "내방",
                "latitude": 37.487625,
                "longitude": 126.993503,
                "x": 60,
                "y": 125
              },
              "subPathId": null
            },
            {
              "pointInformationDto": {
                "name": "이수",
                "latitude": 37.485386,
                "longitude": 126.982067,
                "x": 60,
                "y": 125
              },
              "subPathId": null
            },
            {
              "pointInformationDto": {
                "name": "남성",
                "latitude": 37.484749,
                "longitude": 126.971052,
                "x": 60,
                "y": 125
              },
              "subPathId": null
            },
            {
              "pointInformationDto": {
                "name": "숭실대입구",
                "latitude": 37.495861,
                "longitude": 126.953991,
                "x": 59,
                "y": 125
              },
              "subPathId": null
            }
          ]
        },
        {
          "subPathId": null,
          "pathId": null,
          "type": "walk",
          "distance": 65,
          "time": 1,
          "stationCount": 0,
          "subwayName": "null",
          "busNo": "null",
          "subwayColor": "#000000",
          "busColor": "#000000",
          "startDto": {
            "name": "고속터미널",
            "latitude": 37.503471,
            "longitude": 127.004524,
            "x": 60,
            "y": 125
          },
          "endDto": {
            "name": "숭실대입구역",
            "latitude": 37.496235,
            "longitude": 126.953431,
            "x": 59,
            "y": 125
          },
          "midDto": {
            "name": null,
            "latitude": 37.499853,
            "longitude": 126.9789775,
            "x": 60,
            "y": 125
          },
          "pointDtos": []
        },
        {
          "subPathId": null,
          "pathId": null,
          "type": "bus",
          "distance": 572,
          "time": 6,
          "stationCount": 1,
          "subwayName": "null",
          "busNo": "641",
          "subwayColor": "#000000",
          "busColor": "#0068b7",
          "startDto": {
            "name": "숭실대입구역",
            "latitude": 37.496235,
            "longitude": 126.953431,
            "x": 59,
            "y": 125
          },
          "endDto": {
            "name": "봉현초등학교",
            "latitude": 37.49179,
            "longitude": 126.956116,
            "x": 59,
            "y": 125
          },
          "midDto": {
            "name": null,
            "latitude": 37.4940125,
            "longitude": 126.95477349999999,
            "x": 59,
            "y": 125
          },
          "pointDtos": [
            {
              "pointInformationDto": {
                "name": "숭실대입구역",
                "latitude": 37.496235,
                "longitude": 126.953431,
                "x": 59,
                "y": 125
              },
              "subPathId": null
            },
            {
              "pointInformationDto": {
                "name": "봉현초등학교",
                "latitude": 37.49179,
                "longitude": 126.956116,
                "x": 59,
                "y": 125
              },
              "subPathId": null
            }
          ]
        },
        {
          "subPathId": null,
          "pathId": null,
          "type": "walk",
          "distance": 465,
          "time": 7,
          "stationCount": 0,
          "subwayName": "null",
          "busNo": "null",
          "subwayColor": "#000000",
          "busColor": "#000000",
          "startDto": {
            "name": "봉현초등학교",
            "latitude": 37.49179,
            "longitude": 126.956116,
            "x": 59,
            "y": 125
          },
          "endDto": {
            "name": "숭실대 정보관",
            "latitude": 37.4947,
            "longitude": 126.9599,
            "x": 60,
            "y": 125
          },
          "midDto": {
            "name": null,
            "latitude": 37.493245,
            "longitude": 126.958008,
            "x": 59,
            "y": 125
          },
          "pointDtos": []
        }
      ]
    },
    {
      "pathId": 5,
      "routeRequesterId": null,
      "totalTime": 25,
      "price": 1500,
      "totalDistance": 7384,
      "totalWalkDistance": 612,
      "totalWalkTime": 18,
      "totalRain": 2.33,
      "busTransitCount": 1,
      "subwayTransitCount": 1,
      "totalTransitCount": 2,
      "busStationCount": 1,
      "subwayStationCount": 4,
      "startDto": {
        "name": "신세계 백화점",
        "latitude": 37.5042,
        "longitude": 127.0044,
        "x": 60,
        "y": 125
      },
      "endDto": {
        "name": "숭실대 정보관",
        "latitude": 37.4947,
        "longitude": 126.9599,
        "x": 60,
        "y": 125
      },
      "midDto": {
        "name": null,
        "latitude": 37.499449999999996,
        "longitude": 126.98215,
        "x": 60,
        "y": 125
      },
      "subPathDtos": [
        {
          "subPathId": null,
          "pathId": null,
          "type": "walk",
          "distance": 82,
          "time": 1,
          "stationCount": 0,
          "subwayName": "null",
          "busNo": "null",
          "subwayColor": "#000000",
          "busColor": "#000000",
          "startDto": {
            "name": "신세계 백화점",
            "latitude": 37.5042,
            "longitude": 127.0044,
            "x": 60,
            "y": 125
          },
          "endDto": {
            "name": "고속터미널",
            "latitude": 37.503471,
            "longitude": 127.004524,
            "x": 60,
            "y": 125
          },
          "midDto": {
            "name": null,
            "latitude": 37.503835499999994,
            "longitude": 127.004462,
            "x": 60,
            "y": 125
          },
          "pointDtos": []
        },
        {
          "subPathId": null,
          "pathId": null,
          "type": "subway",
          "distance": 6200,
          "time": 10,
          "stationCount": 4,
          "subwayName": "수도권 7호선",
          "busNo": "null",
          "subwayColor": "#747F00",
          "busColor": "#000000",
          "startDto": {
            "name": "고속터미널",
            "latitude": 37.503471,
            "longitude": 127.004524,
            "x": 60,
            "y": 125
          },
          "endDto": {
            "name": "숭실대입구",
            "latitude": 37.495861,
            "longitude": 126.953991,
            "x": 59,
            "y": 125
          },
          "midDto": {
            "name": null,
            "latitude": 37.499666,
            "longitude": 126.9792575,
            "x": 60,
            "y": 125
          },
          "pointDtos": [
            {
              "pointInformationDto": {
                "name": "고속터미널",
                "latitude": 37.503471,
                "longitude": 127.004524,
                "x": 60,
                "y": 125
              },
              "subPathId": null
            },
            {
              "pointInformationDto": {
                "name": "내방",
                "latitude": 37.487625,
                "longitude": 126.993503,
                "x": 60,
                "y": 125
              },
              "subPathId": null
            },
            {
              "pointInformationDto": {
                "name": "이수",
                "latitude": 37.485386,
                "longitude": 126.982067,
                "x": 60,
                "y": 125
              },
              "subPathId": null
            },
            {
              "pointInformationDto": {
                "name": "남성",
                "latitude": 37.484749,
                "longitude": 126.971052,
                "x": 60,
                "y": 125
              },
              "subPathId": null
            },
            {
              "pointInformationDto": {
                "name": "숭실대입구",
                "latitude": 37.495861,
                "longitude": 126.953991,
                "x": 59,
                "y": 125
              },
              "subPathId": null
            }
          ]
        },
        {
          "subPathId": null,
          "pathId": null,
          "type": "walk",
          "distance": 65,
          "time": 1,
          "stationCount": 0,
          "subwayName": "null",
          "busNo": "null",
          "subwayColor": "#000000",
          "busColor": "#000000",
          "startDto": {
            "name": "고속터미널",
            "latitude": 37.503471,
            "longitude": 127.004524,
            "x": 60,
            "y": 125
          },
          "endDto": {
            "name": "숭실대입구역",
            "latitude": 37.496235,
            "longitude": 126.953431,
            "x": 59,
            "y": 125
          },
          "midDto": {
            "name": null,
            "latitude": 37.499853,
            "longitude": 126.9789775,
            "x": 60,
            "y": 125
          },
          "pointDtos": []
        },
        {
          "subPathId": null,
          "pathId": null,
          "type": "bus",
          "distance": 572,
          "time": 6,
          "stationCount": 1,
          "subwayName": "null",
          "busNo": "5511",
          "subwayColor": "#000000",
          "busColor": "#53b332",
          "startDto": {
            "name": "숭실대입구역",
            "latitude": 37.496235,
            "longitude": 126.953431,
            "x": 59,
            "y": 125
          },
          "endDto": {
            "name": "봉현초등학교",
            "latitude": 37.49179,
            "longitude": 126.956116,
            "x": 59,
            "y": 125
          },
          "midDto": {
            "name": null,
            "latitude": 37.4940125,
            "longitude": 126.95477349999999,
            "x": 59,
            "y": 125
          },
          "pointDtos": [
            {
              "pointInformationDto": {
                "name": "숭실대입구역",
                "latitude": 37.496235,
                "longitude": 126.953431,
                "x": 59,
                "y": 125
              },
              "subPathId": null
            },
            {
              "pointInformationDto": {
                "name": "봉현초등학교",
                "latitude": 37.49179,
                "longitude": 126.956116,
                "x": 59,
                "y": 125
              },
              "subPathId": null
            }
          ]
        },
        {
          "subPathId": null,
          "pathId": null,
          "type": "walk",
          "distance": 465,
          "time": 7,
          "stationCount": 0,
          "subwayName": "null",
          "busNo": "null",
          "subwayColor": "#000000",
          "busColor": "#000000",
          "startDto": {
            "name": "봉현초등학교",
            "latitude": 37.49179,
            "longitude": 126.956116,
            "x": 59,
            "y": 125
          },
          "endDto": {
            "name": "숭실대 정보관",
            "latitude": 37.4947,
            "longitude": 126.9599,
            "x": 60,
            "y": 125
          },
          "midDto": {
            "name": null,
            "latitude": 37.493245,
            "longitude": 126.958008,
            "x": 59,
            "y": 125
          },
          "pointDtos": []
        }
      ]
    },
    {
      "pathId": 6,
      "routeRequesterId": null,
      "totalTime": 29,
      "price": 1500,
      "totalDistance": 8050,
      "totalWalkDistance": 338,
      "totalWalkTime": 12,
      "totalRain": 0,
      "busTransitCount": 1,
      "subwayTransitCount": 1,
      "totalTransitCount": 2,
      "busStationCount": 6,
      "subwayStationCount": 5,
      "startDto": {
        "name": "신세계 백화점",
        "latitude": 37.5042,
        "longitude": 127.0044,
        "x": 60,
        "y": 125
      },
      "endDto": {
        "name": "숭실대 정보관",
        "latitude": 37.4947,
        "longitude": 126.9599,
        "x": 60,
        "y": 125
      },
      "midDto": {
        "name": null,
        "latitude": 37.499449999999996,
        "longitude": 126.98215,
        "x": 60,
        "y": 125
      },
      "subPathDtos": [
        {
          "subPathId": null,
          "pathId": null,
          "type": "walk",
          "distance": 200,
          "time": 3,
          "stationCount": 0,
          "subwayName": "null",
          "busNo": "null",
          "subwayColor": "#000000",
          "busColor": "#000000",
          "startDto": {
            "name": "신세계 백화점",
            "latitude": 37.5042,
            "longitude": 127.0044,
            "x": 60,
            "y": 125
          },
          "endDto": {
            "name": "고속터미널",
            "latitude": 37.506003,
            "longitude": 127.004318,
            "x": 60,
            "y": 125
          },
          "midDto": {
            "name": null,
            "latitude": 37.505101499999995,
            "longitude": 127.004359,
            "x": 60,
            "y": 125
          },
          "pointDtos": []
        },
        {
          "subPathId": null,
          "pathId": null,
          "type": "subway",
          "distance": 5000,
          "time": 10,
          "stationCount": 5,
          "subwayName": "수도권 9호선",
          "busNo": "null",
          "subwayColor": "#BDB092",
          "busColor": "#000000",
          "startDto": {
            "name": "고속터미널",
            "latitude": 37.506003,
            "longitude": 127.004318,
            "x": 60,
            "y": 125
          },
          "endDto": {
            "name": "노들",
            "latitude": 37.512695,
            "longitude": 126.953213,
            "x": 59,
            "y": 126
          },
          "midDto": {
            "name": null,
            "latitude": 37.509349,
            "longitude": 126.97876550000001,
            "x": 60,
            "y": 125
          },
          "pointDtos": [
            {
              "pointInformationDto": {
                "name": "고속터미널",
                "latitude": 37.506003,
                "longitude": 127.004318,
                "x": 60,
                "y": 125
              },
              "subPathId": null
            },
            {
              "pointInformationDto": {
                "name": "신반포",
                "latitude": 37.503496,
                "longitude": 126.996033,
                "x": 60,
                "y": 125
              },
              "subPathId": null
            },
            {
              "pointInformationDto": {
                "name": "구반포",
                "latitude": 37.501438,
                "longitude": 126.987442,
                "x": 60,
                "y": 125
              },
              "subPathId": null
            },
            {
              "pointInformationDto": {
                "name": "동작",
                "latitude": 37.503133,
                "longitude": 126.977774,
                "x": 60,
                "y": 125
              },
              "subPathId": null
            },
            {
              "pointInformationDto": {
                "name": "흑석",
                "latitude": 37.509183,
                "longitude": 126.963395,
                "x": 60,
                "y": 125
              },
              "subPathId": null
            },
            {
              "pointInformationDto": {
                "name": "노들",
                "latitude": 37.512695,
                "longitude": 126.953213,
                "x": 59,
                "y": 126
              },
              "subPathId": null
            }
          ]
        },
        {
          "subPathId": null,
          "pathId": null,
          "type": "walk",
          "distance": 101,
          "time": 2,
          "stationCount": 0,
          "subwayName": "null",
          "busNo": "null",
          "subwayColor": "#000000",
          "busColor": "#000000",
          "startDto": {
            "name": "고속터미널",
            "latitude": 37.506003,
            "longitude": 127.004318,
            "x": 60,
            "y": 125
          },
          "endDto": {
            "name": "상도터널노량진동",
            "latitude": 37.511834,
            "longitude": 126.953609,
            "x": 59,
            "y": 126
          },
          "midDto": {
            "name": null,
            "latitude": 37.5089185,
            "longitude": 126.97896349999999,
            "x": 60,
            "y": 125
          },
          "pointDtos": []
        },
        {
          "subPathId": null,
          "pathId": null,
          "type": "bus",
          "distance": 2712,
          "time": 13,
          "stationCount": 6,
          "subwayName": "null",
          "busNo": "752",
          "subwayColor": "#000000",
          "busColor": "#0068b7",
          "startDto": {
            "name": "상도터널노량진동",
            "latitude": 37.511834,
            "longitude": 126.953609,
            "x": 59,
            "y": 126
          },
          "endDto": {
            "name": "숭실대별관앞",
            "latitude": 37.494683,
            "longitude": 126.960317,
            "x": 60,
            "y": 125
          },
          "midDto": {
            "name": null,
            "latitude": 37.5032585,
            "longitude": 126.956963,
            "x": 59,
            "y": 125
          },
          "pointDtos": [
            {
              "pointInformationDto": {
                "name": "상도터널노량진동",
                "latitude": 37.511834,
                "longitude": 126.953609,
                "x": 59,
                "y": 126
              },
              "subPathId": null
            },
            {
              "pointInformationDto": {
                "name": "상도터널상도동",
                "latitude": 37.504563,
                "longitude": 126.949571,
                "x": 59,
                "y": 125
              },
              "subPathId": null
            },
            {
              "pointInformationDto": {
                "name": "상도역",
                "latitude": 37.501671,
                "longitude": 126.948684,
                "x": 59,
                "y": 125
              },
              "subPathId": null
            },
            {
              "pointInformationDto": {
                "name": "상도동중앙하이츠빌.상도전통시장",
                "latitude": 37.498837,
                "longitude": 126.95111,
                "x": 59,
                "y": 125
              },
              "subPathId": null
            },
            {
              "pointInformationDto": {
                "name": "숭실대입구역",
                "latitude": 37.496709,
                "longitude": 126.953017,
                "x": 59,
                "y": 125
              },
              "subPathId": null
            },
            {
              "pointInformationDto": {
                "name": "숭실대정문앞",
                "latitude": 37.495177,
                "longitude": 126.957042,
                "x": 59,
                "y": 125
              },
              "subPathId": null
            },
            {
              "pointInformationDto": {
                "name": "숭실대별관앞",
                "latitude": 37.494683,
                "longitude": 126.960317,
                "x": 60,
                "y": 125
              },
              "subPathId": null
            }
          ]
        },
        {
          "subPathId": null,
          "pathId": null,
          "type": "walk",
          "distance": 37,
          "time": 1,
          "stationCount": 0,
          "subwayName": "null",
          "busNo": "null",
          "subwayColor": "#000000",
          "busColor": "#000000",
          "startDto": {
            "name": "숭실대별관앞",
            "latitude": 37.494683,
            "longitude": 126.960317,
            "x": 60,
            "y": 125
          },
          "endDto": {
            "name": "숭실대 정보관",
            "latitude": 37.4947,
            "longitude": 126.9599,
            "x": 60,
            "y": 125
          },
          "midDto": {
            "name": null,
            "latitude": 37.4946915,
            "longitude": 126.9601085,
            "x": 60,
            "y": 125
          },
          "pointDtos": []
        }
      ]
    },
    {
      "pathId": 7,
      "routeRequesterId": null,
      "totalTime": 38,
      "price": 1500,
      "totalDistance": 8072,
      "totalWalkDistance": 329,
      "totalWalkTime": 12,
      "totalRain": 0,
      "busTransitCount": 2,
      "subwayTransitCount": 0,
      "totalTransitCount": 2,
      "busStationCount": 15,
      "subwayStationCount": 0,
      "startDto": {
        "name": "신세계 백화점",
        "latitude": 37.5042,
        "longitude": 127.0044,
        "x": 60,
        "y": 125
      },
      "endDto": {
        "name": "숭실대 정보관",
        "latitude": 37.4947,
        "longitude": 126.9599,
        "x": 60,
        "y": 125
      },
      "midDto": {
        "name": null,
        "latitude": 37.499449999999996,
        "longitude": 126.98215,
        "x": 60,
        "y": 125
      },
      "subPathDtos": [
        {
          "subPathId": null,
          "pathId": null,
          "type": "walk",
          "distance": 245,
          "time": 4,
          "stationCount": 0,
          "subwayName": "null",
          "busNo": "null",
          "subwayColor": "#000000",
          "busColor": "#000000",
          "startDto": {
            "name": "신세계 백화점",
            "latitude": 37.5042,
            "longitude": 127.0044,
            "x": 60,
            "y": 125
          },
          "endDto": {
            "name": "고속터미널",
            "latitude": 37.506305,
            "longitude": 127.005228,
            "x": 60,
            "y": 125
          },
          "midDto": {
            "name": null,
            "latitude": 37.5052525,
            "longitude": 127.00481400000001,
            "x": 60,
            "y": 125
          },
          "pointDtos": []
        },
        {
          "subPathId": null,
          "pathId": null,
          "type": "bus",
          "distance": 2730,
          "time": 11,
          "stationCount": 3,
          "subwayName": "null",
          "busNo": "360",
          "subwayColor": "#000000",
          "busColor": "#0068b7",
          "startDto": {
            "name": "고속터미널",
            "latitude": 37.506305,
            "longitude": 127.005228,
            "x": 60,
            "y": 125
          },
          "endDto": {
            "name": "동작역.국립현충원",
            "latitude": 37.503,
            "longitude": 126.976895,
            "x": 60,
            "y": 125
          },
          "midDto": {
            "name": null,
            "latitude": 37.5046525,
            "longitude": 126.9910615,
            "x": 60,
            "y": 125
          },
          "pointDtos": [
            {
              "pointInformationDto": {
                "name": "고속터미널",
                "latitude": 37.506305,
                "longitude": 127.005228,
                "x": 60,
                "y": 125
              },
              "subPathId": null
            },
            {
              "pointInformationDto": {
                "name": "신반포역.세화여중고",
                "latitude": 37.503432,
                "longitude": 126.995732,
                "x": 60,
                "y": 125
              },
              "subPathId": null
            },
            {
              "pointInformationDto": {
                "name": "구반포역.세화고등학교",
                "latitude": 37.50195,
                "longitude": 126.989973,
                "x": 60,
                "y": 125
              },
              "subPathId": null
            },
            {
              "pointInformationDto": {
                "name": "동작역.국립현충원",
                "latitude": 37.503,
                "longitude": 126.976895,
                "x": 60,
                "y": 125
              },
              "subPathId": null
            }
          ]
        },
        {
          "subPathId": null,
          "pathId": null,
          "type": "walk",
          "distance": 53,
          "time": 1,
          "stationCount": 0,
          "subwayName": "null",
          "busNo": "null",
          "subwayColor": "#000000",
          "busColor": "#000000",
          "startDto": {
            "name": "고속터미널",
            "latitude": 37.506305,
            "longitude": 127.005228,
            "x": 60,
            "y": 125
          },
          "endDto": {
            "name": "동작역.국립현충원",
            "latitude": 37.502522,
            "longitude": 126.976845,
            "x": 60,
            "y": 125
          },
          "midDto": {
            "name": null,
            "latitude": 37.5044135,
            "longitude": 126.9910365,
            "x": 60,
            "y": 125
          },
          "pointDtos": []
        },
        {
          "subPathId": null,
          "pathId": null,
          "type": "bus",
          "distance": 5013,
          "time": 21,
          "stationCount": 12,
          "subwayName": "null",
          "busNo": "752",
          "subwayColor": "#000000",
          "busColor": "#0068b7",
          "startDto": {
            "name": "동작역.국립현충원",
            "latitude": 37.502522,
            "longitude": 126.976845,
            "x": 60,
            "y": 125
          },
          "endDto": {
            "name": "숭실대별관앞",
            "latitude": 37.494977,
            "longitude": 126.959951,
            "x": 60,
            "y": 125
          },
          "midDto": {
            "name": null,
            "latitude": 37.4987495,
            "longitude": 126.96839800000001,
            "x": 60,
            "y": 125
          },
          "pointDtos": [
            {
              "pointInformationDto": {
                "name": "동작역.국립현충원",
                "latitude": 37.502522,
                "longitude": 126.976845,
                "x": 60,
                "y": 125
              },
              "subPathId": null
            },
            {
              "pointInformationDto": {
                "name": "갯마을앞",
                "latitude": 37.49755,
                "longitude": 126.983348,
                "x": 60,
                "y": 125
              },
              "subPathId": null
            },
            {
              "pointInformationDto": {
                "name": "정금마을.방배경찰서",
                "latitude": 37.494337,
                "longitude": 126.982747,
                "x": 60,
                "y": 125
              },
              "subPathId": null
            },
            {
              "pointInformationDto": {
                "name": "경문고교.배나무골앞",
                "latitude": 37.491381,
                "longitude": 126.982663,
                "x": 60,
                "y": 125
              },
              "subPathId": null
            },
            {
              "pointInformationDto": {
                "name": "총신대입구역.남성사계시장입구앞",
                "latitude": 37.48817,
                "longitude": 126.982288,
                "x": 60,
                "y": 125
              },
              "subPathId": null
            },
            {
              "pointInformationDto": {
                "name": "이수역10번출구",
                "latitude": 37.484907,
                "longitude": 126.98007,
                "x": 60,
                "y": 125
              },
              "subPathId": null
            },
            {
              "pointInformationDto": {
                "name": "남성초등학교",
                "latitude": 37.484325,
                "longitude": 126.978427,
                "x": 60,
                "y": 125
              },
              "subPathId": null
            },
            {
              "pointInformationDto": {
                "name": "남성역골목시장",
                "latitude": 37.483668,
                "longitude": 126.973326,
                "x": 60,
                "y": 125
              },
              "subPathId": null
            },
            {
              "pointInformationDto": {
                "name": "남성역",
                "latitude": 37.484979,
                "longitude": 126.970707,
                "x": 60,
                "y": 125
              },
              "subPathId": null
            },
            {
              "pointInformationDto": {
                "name": "사당중학교",
                "latitude": 37.486678,
                "longitude": 126.968185,
                "x": 60,
                "y": 125
              },
              "subPathId": null
            },
            {
              "pointInformationDto": {
                "name": "총신대",
                "latitude": 37.488787,
                "longitude": 126.966143,
                "x": 60,
                "y": 125
              },
              "subPathId": null
            },
            {
              "pointInformationDto": {
                "name": "사당롯데캐슬골든포레.사당해그린",
                "latitude": 37.492323,
                "longitude": 126.963527,
                "x": 60,
                "y": 125
              },
              "subPathId": null
            },
            {
              "pointInformationDto": {
                "name": "숭실대별관앞",
                "latitude": 37.494977,
                "longitude": 126.959951,
                "x": 60,
                "y": 125
              },
              "subPathId": null
            }
          ]
        },
        {
          "subPathId": null,
          "pathId": null,
          "type": "walk",
          "distance": 31,
          "time": 1,
          "stationCount": 0,
          "subwayName": "null",
          "busNo": "null",
          "subwayColor": "#000000",
          "busColor": "#000000",
          "startDto": {
            "name": "숭실대별관앞",
            "latitude": 37.494977,
            "longitude": 126.959951,
            "x": 60,
            "y": 125
          },
          "endDto": {
            "name": "숭실대 정보관",
            "latitude": 37.4947,
            "longitude": 126.9599,
            "x": 60,
            "y": 125
          },
          "midDto": {
            "name": null,
            "latitude": 37.4948385,
            "longitude": 126.9599255,
            "x": 60,
            "y": 125
          },
          "pointDtos": []
        }
      ]
    },
    {
      "pathId": 8,
      "routeRequesterId": null,
      "totalTime": 39,
      "price": 1500,
      "totalDistance": 6156,
      "totalWalkDistance": 838,
      "totalWalkTime": 26,
      "totalRain": 0,
      "busTransitCount": 2,
      "subwayTransitCount": 0,
      "totalTransitCount": 2,
      "busStationCount": 14,
      "subwayStationCount": 0,
      "startDto": {
        "name": "신세계 백화점",
        "latitude": 37.5042,
        "longitude": 127.0044,
        "x": 60,
        "y": 125
      },
      "endDto": {
        "name": "숭실대 정보관",
        "latitude": 37.4947,
        "longitude": 126.9599,
        "x": 60,
        "y": 125
      },
      "midDto": {
        "name": null,
        "latitude": 37.499449999999996,
        "longitude": 126.98215,
        "x": 60,
        "y": 125
      },
      "subPathDtos": [
        {
          "subPathId": null,
          "pathId": null,
          "type": "walk",
          "distance": 245,
          "time": 4,
          "stationCount": 0,
          "subwayName": "null",
          "busNo": "null",
          "subwayColor": "#000000",
          "busColor": "#000000",
          "startDto": {
            "name": "신세계 백화점",
            "latitude": 37.5042,
            "longitude": 127.0044,
            "x": 60,
            "y": 125
          },
          "endDto": {
            "name": "고속터미널",
            "latitude": 37.506305,
            "longitude": 127.005228,
            "x": 60,
            "y": 125
          },
          "midDto": {
            "name": null,
            "latitude": 37.5052525,
            "longitude": 127.00481400000001,
            "x": 60,
            "y": 125
          },
          "pointDtos": []
        },
        {
          "subPathId": null,
          "pathId": null,
          "type": "bus",
          "distance": 4379,
          "time": 17,
          "stationCount": 8,
          "subwayName": "null",
          "busNo": "452",
          "subwayColor": "#000000",
          "busColor": "#0068b7",
          "startDto": {
            "name": "고속터미널",
            "latitude": 37.506305,
            "longitude": 127.005228,
            "x": 60,
            "y": 125
          },
          "endDto": {
            "name": "중앙대학교",
            "latitude": 37.507982,
            "longitude": 126.96132,
            "x": 60,
            "y": 125
          },
          "midDto": {
            "name": null,
            "latitude": 37.5071435,
            "longitude": 126.983274,
            "x": 60,
            "y": 125
          },
          "pointDtos": [
            {
              "pointInformationDto": {
                "name": "고속터미널",
                "latitude": 37.506305,
                "longitude": 127.005228,
                "x": 60,
                "y": 125
              },
              "subPathId": null
            },
            {
              "pointInformationDto": {
                "name": "신반포역.세화여중고",
                "latitude": 37.503432,
                "longitude": 126.995732,
                "x": 60,
                "y": 125
              },
              "subPathId": null
            },
            {
              "pointInformationDto": {
                "name": "구반포역.세화고등학교",
                "latitude": 37.50195,
                "longitude": 126.989973,
                "x": 60,
                "y": 125
              },
              "subPathId": null
            },
            {
              "pointInformationDto": {
                "name": "동작역.국립현충원",
                "latitude": 37.503,
                "longitude": 126.976895,
                "x": 60,
                "y": 125
              },
              "subPathId": null
            },
            {
              "pointInformationDto": {
                "name": "흑석동한강현대아파트",
                "latitude": 37.505858,
                "longitude": 126.971891,
                "x": 60,
                "y": 125
              },
              "subPathId": null
            },
            {
              "pointInformationDto": {
                "name": "비계",
                "latitude": 37.506478,
                "longitude": 126.968557,
                "x": 60,
                "y": 125
              },
              "subPathId": null
            },
            {
              "pointInformationDto": {
                "name": "흑석동명수대현대아파트",
                "latitude": 37.507297,
                "longitude": 126.96642,
                "x": 60,
                "y": 125
              },
              "subPathId": null
            },
            {
              "pointInformationDto": {
                "name": "흑석역.흑석동빗물펌프장",
                "latitude": 37.508324,
                "longitude": 126.963261,
                "x": 60,
                "y": 125
              },
              "subPathId": null
            },
            {
              "pointInformationDto": {
                "name": "중앙대학교",
                "latitude": 37.507982,
                "longitude": 126.96132,
                "x": 60,
                "y": 125
              },
              "subPathId": null
            }
          ]
        },
        {
          "subPathId": null,
          "pathId": null,
          "type": "walk",
          "distance": 54,
          "time": 1,
          "stationCount": 0,
          "subwayName": "null",
          "busNo": "null",
          "subwayColor": "#000000",
          "busColor": "#000000",
          "startDto": {
            "name": "고속터미널",
            "latitude": 37.506305,
            "longitude": 127.005228,
            "x": 60,
            "y": 125
          },
          "endDto": {
            "name": "중앙대병원",
            "latitude": 37.507495,
            "longitude": 126.961293,
            "x": 60,
            "y": 125
          },
          "midDto": {
            "name": null,
            "latitude": 37.5069,
            "longitude": 126.9832605,
            "x": 60,
            "y": 125
          },
          "pointDtos": []
        },
        {
          "subPathId": null,
          "pathId": null,
          "type": "bus",
          "distance": 939,
          "time": 9,
          "stationCount": 6,
          "subwayName": "null",
          "busNo": "동작01",
          "subwayColor": "#000000",
          "busColor": "#ffc600",
          "startDto": {
            "name": "중앙대병원",
            "latitude": 37.507495,
            "longitude": 126.961293,
            "x": 60,
            "y": 125
          },
          "endDto": {
            "name": "동양아파트",
            "latitude": 37.499553,
            "longitude": 126.95982,
            "x": 60,
            "y": 125
          },
          "midDto": {
            "name": null,
            "latitude": 37.503524,
            "longitude": 126.9605565,
            "x": 60,
            "y": 125
          },
          "pointDtos": [
            {
              "pointInformationDto": {
                "name": "중앙대병원",
                "latitude": 37.507495,
                "longitude": 126.961293,
                "x": 60,
                "y": 125
              },
              "subPathId": null
            },
            {
              "pointInformationDto": {
                "name": "중앙대병원후문.흑석시장",
                "latitude": 37.506513,
                "longitude": 126.961262,
                "x": 60,
                "y": 125
              },
              "subPathId": null
            },
            {
              "pointInformationDto": {
                "name": "중앙대부속초등학교.롯데캐슬에듀포레",
                "latitude": 37.505158,
                "longitude": 126.960839,
                "x": 60,
                "y": 125
              },
              "subPathId": null
            },
            {
              "pointInformationDto": {
                "name": "은로초등학교",
                "latitude": 37.503265,
                "longitude": 126.96082,
                "x": 60,
                "y": 125
              },
              "subPathId": null
            },
            {
              "pointInformationDto": {
                "name": "중앙빌리지.동부센트레빌",
                "latitude": 37.502034,
                "longitude": 126.960193,
                "x": 60,
                "y": 125
              },
              "subPathId": null
            },
            {
              "pointInformationDto": {
                "name": "유앤미아파트",
                "latitude": 37.500998,
                "longitude": 126.960173,
                "x": 60,
                "y": 125
              },
              "subPathId": null
            },
            {
              "pointInformationDto": {
                "name": "동양아파트",
                "latitude": 37.499553,
                "longitude": 126.95982,
                "x": 60,
                "y": 125
              },
              "subPathId": null
            }
          ]
        },
        {
          "subPathId": null,
          "pathId": null,
          "type": "walk",
          "distance": 539,
          "time": 8,
          "stationCount": 0,
          "subwayName": "null",
          "busNo": "null",
          "subwayColor": "#000000",
          "busColor": "#000000",
          "startDto": {
            "name": "동양아파트",
            "latitude": 37.499553,
            "longitude": 126.95982,
            "x": 60,
            "y": 125
          },
          "endDto": {
            "name": "숭실대 정보관",
            "latitude": 37.4947,
            "longitude": 126.9599,
            "x": 60,
            "y": 125
          },
          "midDto": {
            "name": null,
            "latitude": 37.4971265,
            "longitude": 126.95985999999999,
            "x": 60,
            "y": 125
          },
          "pointDtos": []
        }
      ]
    },
    {
      "pathId": 9,
      "routeRequesterId": null,
      "totalTime": 42,
      "price": 1500,
      "totalDistance": 7135,
      "totalWalkDistance": 842,
      "totalWalkTime": 26,
      "totalRain": 3,
      "busTransitCount": 2,
      "subwayTransitCount": 0,
      "totalTransitCount": 2,
      "busStationCount": 15,
      "subwayStationCount": 0,
      "startDto": {
        "name": "신세계 백화점",
        "latitude": 37.5042,
        "longitude": 127.0044,
        "x": 60,
        "y": 125
      },
      "endDto": {
        "name": "숭실대 정보관",
        "latitude": 37.4947,
        "longitude": 126.9599,
        "x": 60,
        "y": 125
      },
      "midDto": {
        "name": null,
        "latitude": 37.499449999999996,
        "longitude": 126.98215,
        "x": 60,
        "y": 125
      },
      "subPathDtos": [
        {
          "subPathId": null,
          "pathId": null,
          "type": "walk",
          "distance": 245,
          "time": 4,
          "stationCount": 0,
          "subwayName": "null",
          "busNo": "null",
          "subwayColor": "#000000",
          "busColor": "#000000",
          "startDto": {
            "name": "신세계 백화점",
            "latitude": 37.5042,
            "longitude": 127.0044,
            "x": 60,
            "y": 125
          },
          "endDto": {
            "name": "고속터미널",
            "latitude": 37.506305,
            "longitude": 127.005228,
            "x": 60,
            "y": 125
          },
          "midDto": {
            "name": null,
            "latitude": 37.5052525,
            "longitude": 127.00481400000001,
            "x": 60,
            "y": 125
          },
          "pointDtos": []
        },
        {
          "subPathId": null,
          "pathId": null,
          "type": "bus",
          "distance": 4151,
          "time": 16,
          "stationCount": 7,
          "subwayName": "null",
          "busNo": "452",
          "subwayColor": "#000000",
          "busColor": "#0068b7",
          "startDto": {
            "name": "고속터미널",
            "latitude": 37.506305,
            "longitude": 127.005228,
            "x": 60,
            "y": 125
          },
          "endDto": {
            "name": "흑석역.흑석동빗물펌프장",
            "latitude": 37.508324,
            "longitude": 126.963261,
            "x": 60,
            "y": 125
          },
          "midDto": {
            "name": null,
            "latitude": 37.5073145,
            "longitude": 126.9842445,
            "x": 60,
            "y": 125
          },
          "pointDtos": [
            {
              "pointInformationDto": {
                "name": "고속터미널",
                "latitude": 37.506305,
                "longitude": 127.005228,
                "x": 60,
                "y": 125
              },
              "subPathId": null
            },
            {
              "pointInformationDto": {
                "name": "신반포역.세화여중고",
                "latitude": 37.503432,
                "longitude": 126.995732,
                "x": 60,
                "y": 125
              },
              "subPathId": null
            },
            {
              "pointInformationDto": {
                "name": "구반포역.세화고등학교",
                "latitude": 37.50195,
                "longitude": 126.989973,
                "x": 60,
                "y": 125
              },
              "subPathId": null
            },
            {
              "pointInformationDto": {
                "name": "동작역.국립현충원",
                "latitude": 37.503,
                "longitude": 126.976895,
                "x": 60,
                "y": 125
              },
              "subPathId": null
            },
            {
              "pointInformationDto": {
                "name": "흑석동한강현대아파트",
                "latitude": 37.505858,
                "longitude": 126.971891,
                "x": 60,
                "y": 125
              },
              "subPathId": null
            },
            {
              "pointInformationDto": {
                "name": "비계",
                "latitude": 37.506478,
                "longitude": 126.968557,
                "x": 60,
                "y": 125
              },
              "subPathId": null
            },
            {
              "pointInformationDto": {
                "name": "흑석동명수대현대아파트",
                "latitude": 37.507297,
                "longitude": 126.96642,
                "x": 60,
                "y": 125
              },
              "subPathId": null
            },
            {
              "pointInformationDto": {
                "name": "흑석역.흑석동빗물펌프장",
                "latitude": 37.508324,
                "longitude": 126.963261,
                "x": 60,
                "y": 125
              },
              "subPathId": null
            }
          ]
        },
        {
          "subPathId": null,
          "pathId": null,
          "type": "walk",
          "distance": 0,
          "time": 0,
          "stationCount": 0,
          "subwayName": "null",
          "busNo": "null",
          "subwayColor": "#000000",
          "busColor": "#000000",
          "startDto": {
            "name": "고속터미널",
            "latitude": 37.506305,
            "longitude": 127.005228,
            "x": 60,
            "y": 125
          },
          "endDto": {
            "name": "흑석역.흑석동빗물펌프장",
            "latitude": 37.508324,
            "longitude": 126.963261,
            "x": 60,
            "y": 125
          },
          "midDto": {
            "name": null,
            "latitude": 37.5073145,
            "longitude": 126.9842445,
            "x": 60,
            "y": 125
          },
          "pointDtos": []
        },
        {
          "subPathId": null,
          "pathId": null,
          "type": "bus",
          "distance": 2142,
          "time": 13,
          "stationCount": 8,
          "subwayName": "null",
          "busNo": "5511",
          "subwayColor": "#000000",
          "busColor": "#53b332",
          "startDto": {
            "name": "흑석역.흑석동빗물펌프장",
            "latitude": 37.508324,
            "longitude": 126.963261,
            "x": 60,
            "y": 125
          },
          "endDto": {
            "name": "숭실대입구역",
            "latitude": 37.496235,
            "longitude": 126.953431,
            "x": 59,
            "y": 125
          },
          "midDto": {
            "name": null,
            "latitude": 37.5022795,
            "longitude": 126.958346,
            "x": 59,
            "y": 125
          },
          "pointDtos": [
            {
              "pointInformationDto": {
                "name": "흑석역.흑석동빗물펌프장",
                "latitude": 37.508324,
                "longitude": 126.963261,
                "x": 60,
                "y": 125
              },
              "subPathId": null
            },
            {
              "pointInformationDto": {
                "name": "중앙대정문",
                "latitude": 37.507186,
                "longitude": 126.9589,
                "x": 59,
                "y": 125
              },
              "subPathId": null
            },
            {
              "pointInformationDto": {
                "name": "중앙대중문",
                "latitude": 37.506631,
                "longitude": 126.957222,
                "x": 59,
                "y": 125
              },
              "subPathId": null
            },
            {
              "pointInformationDto": {
                "name": "중앙대후문",
                "latitude": 37.50448,
                "longitude": 126.953486,
                "x": 59,
                "y": 125
              },
              "subPathId": null
            },
            {
              "pointInformationDto": {
                "name": "상도SH빌아파트상도팰리스후문",
                "latitude": 37.503154,
                "longitude": 126.954296,
                "x": 59,
                "y": 125
              },
              "subPathId": null
            },
            {
              "pointInformationDto": {
                "name": "상도3차삼성래미안후문",
                "latitude": 37.500922,
                "longitude": 126.953614,
                "x": 59,
                "y": 125
              },
              "subPathId": null
            },
            {
              "pointInformationDto": {
                "name": "금양빌딩",
                "latitude": 37.499551,
                "longitude": 126.953453,
                "x": 59,
                "y": 125
              },
              "subPathId": null
            },
            {
              "pointInformationDto": {
                "name": "상도1동주민센터.상도3차래미안",
                "latitude": 37.498071,
                "longitude": 126.953224,
                "x": 59,
                "y": 125
              },
              "subPathId": null
            },
            {
              "pointInformationDto": {
                "name": "숭실대입구역",
                "latitude": 37.496235,
                "longitude": 126.953431,
                "x": 59,
                "y": 125
              },
              "subPathId": null
            }
          ]
        },
        {
          "subPathId": null,
          "pathId": null,
          "type": "walk",
          "distance": 597,
          "time": 9,
          "stationCount": 0,
          "subwayName": "null",
          "busNo": "null",
          "subwayColor": "#000000",
          "busColor": "#000000",
          "startDto": {
            "name": "숭실대입구역",
            "latitude": 37.496235,
            "longitude": 126.953431,
            "x": 59,
            "y": 125
          },
          "endDto": {
            "name": "숭실대 정보관",
            "latitude": 37.4947,
            "longitude": 126.9599,
            "x": 60,
            "y": 125
          },
          "midDto": {
            "name": null,
            "latitude": 37.495467500000004,
            "longitude": 126.9566655,
            "x": 59,
            "y": 125
          },
          "pointDtos": []
        }
      ]
    },
    {
      "pathId": 10,
      "routeRequesterId": null,
      "totalTime": 33,
      "price": 1500,
      "totalDistance": 6492,
      "totalWalkDistance": 276,
      "totalWalkTime": 10,
      "totalRain": 0,
      "busTransitCount": 2,
      "subwayTransitCount": 0,
      "totalTransitCount": 2,
      "busStationCount": 14,
      "subwayStationCount": 0,
      "startDto": {
        "name": "신세계 백화점",
        "latitude": 37.5042,
        "longitude": 127.0044,
        "x": 60,
        "y": 125
      },
      "endDto": {
        "name": "숭실대 정보관",
        "latitude": 37.4947,
        "longitude": 126.9599,
        "x": 60,
        "y": 125
      },
      "midDto": {
        "name": null,
        "latitude": 37.499449999999996,
        "longitude": 126.98215,
        "x": 60,
        "y": 125
      },
      "subPathDtos": [
        {
          "subPathId": null,
          "pathId": null,
          "type": "walk",
          "distance": 245,
          "time": 4,
          "stationCount": 0,
          "subwayName": "null",
          "busNo": "null",
          "subwayColor": "#000000",
          "busColor": "#000000",
          "startDto": {
            "name": "신세계 백화점",
            "latitude": 37.5042,
            "longitude": 127.0044,
            "x": 60,
            "y": 125
          },
          "endDto": {
            "name": "고속터미널",
            "latitude": 37.506305,
            "longitude": 127.005228,
            "x": 60,
            "y": 125
          },
          "midDto": {
            "name": null,
            "latitude": 37.5052525,
            "longitude": 127.00481400000001,
            "x": 60,
            "y": 125
          },
          "pointDtos": []
        },
        {
          "subPathId": null,
          "pathId": null,
          "type": "bus",
          "distance": 3310,
          "time": 14,
          "stationCount": 6,
          "subwayName": "null",
          "busNo": "4212",
          "subwayColor": "#000000",
          "busColor": "#53b332",
          "startDto": {
            "name": "고속터미널",
            "latitude": 37.506305,
            "longitude": 127.005228,
            "x": 60,
            "y": 125
          },
          "endDto": {
            "name": "총신대입구역.남성사계시장입구앞",
            "latitude": 37.48817,
            "longitude": 126.982288,
            "x": 60,
            "y": 125
          },
          "midDto": {
            "name": null,
            "latitude": 37.4972375,
            "longitude": 126.993758,
            "x": 60,
            "y": 125
          },
          "pointDtos": [
            {
              "pointInformationDto": {
                "name": "고속터미널",
                "latitude": 37.506305,
                "longitude": 127.005228,
                "x": 60,
                "y": 125
              },
              "subPathId": null
            },
            {
              "pointInformationDto": {
                "name": "신반포역.세화여중고",
                "latitude": 37.503432,
                "longitude": 126.995732,
                "x": 60,
                "y": 125
              },
              "subPathId": null
            },
            {
              "pointInformationDto": {
                "name": "구반포역.세화고등학교",
                "latitude": 37.50195,
                "longitude": 126.989973,
                "x": 60,
                "y": 125
              },
              "subPathId": null
            },
            {
              "pointInformationDto": {
                "name": "갯마을앞",
                "latitude": 37.49755,
                "longitude": 126.983348,
                "x": 60,
                "y": 125
              },
              "subPathId": null
            },
            {
              "pointInformationDto": {
                "name": "정금마을.방배경찰서",
                "latitude": 37.494337,
                "longitude": 126.982747,
                "x": 60,
                "y": 125
              },
              "subPathId": null
            },
            {
              "pointInformationDto": {
                "name": "경문고교.배나무골앞",
                "latitude": 37.491381,
                "longitude": 126.982663,
                "x": 60,
                "y": 125
              },
              "subPathId": null
            },
            {
              "pointInformationDto": {
                "name": "총신대입구역.남성사계시장입구앞",
                "latitude": 37.48817,
                "longitude": 126.982288,
                "x": 60,
                "y": 125
              },
              "subPathId": null
            }
          ]
        },
        {
          "subPathId": null,
          "pathId": null,
          "type": "walk",
          "distance": 0,
          "time": 0,
          "stationCount": 0,
          "subwayName": "null",
          "busNo": "null",
          "subwayColor": "#000000",
          "busColor": "#000000",
          "startDto": {
            "name": "고속터미널",
            "latitude": 37.506305,
            "longitude": 127.005228,
            "x": 60,
            "y": 125
          },
          "endDto": {
            "name": "총신대입구역.남성사계시장입구앞",
            "latitude": 37.48817,
            "longitude": 126.982288,
            "x": 60,
            "y": 125
          },
          "midDto": {
            "name": null,
            "latitude": 37.4972375,
            "longitude": 126.993758,
            "x": 60,
            "y": 125
          },
          "pointDtos": []
        },
        {
          "subPathId": null,
          "pathId": null,
          "type": "bus",
          "distance": 2906,
          "time": 14,
          "stationCount": 8,
          "subwayName": "null",
          "busNo": "752",
          "subwayColor": "#000000",
          "busColor": "#0068b7",
          "startDto": {
            "name": "총신대입구역.남성사계시장입구앞",
            "latitude": 37.48817,
            "longitude": 126.982288,
            "x": 60,
            "y": 125
          },
          "endDto": {
            "name": "숭실대별관앞",
            "latitude": 37.494977,
            "longitude": 126.959951,
            "x": 60,
            "y": 125
          },
          "midDto": {
            "name": null,
            "latitude": 37.4915735,
            "longitude": 126.9711195,
            "x": 60,
            "y": 125
          },
          "pointDtos": [
            {
              "pointInformationDto": {
                "name": "총신대입구역.남성사계시장입구앞",
                "latitude": 37.48817,
                "longitude": 126.982288,
                "x": 60,
                "y": 125
              },
              "subPathId": null
            },
            {
              "pointInformationDto": {
                "name": "이수역10번출구",
                "latitude": 37.484907,
                "longitude": 126.98007,
                "x": 60,
                "y": 125
              },
              "subPathId": null
            },
            {
              "pointInformationDto": {
                "name": "남성초등학교",
                "latitude": 37.484325,
                "longitude": 126.978427,
                "x": 60,
                "y": 125
              },
              "subPathId": null
            },
            {
              "pointInformationDto": {
                "name": "남성역골목시장",
                "latitude": 37.483668,
                "longitude": 126.973326,
                "x": 60,
                "y": 125
              },
              "subPathId": null
            },
            {
              "pointInformationDto": {
                "name": "남성역",
                "latitude": 37.484979,
                "longitude": 126.970707,
                "x": 60,
                "y": 125
              },
              "subPathId": null
            },
            {
              "pointInformationDto": {
                "name": "사당중학교",
                "latitude": 37.486678,
                "longitude": 126.968185,
                "x": 60,
                "y": 125
              },
              "subPathId": null
            },
            {
              "pointInformationDto": {
                "name": "총신대",
                "latitude": 37.488787,
                "longitude": 126.966143,
                "x": 60,
                "y": 125
              },
              "subPathId": null
            },
            {
              "pointInformationDto": {
                "name": "사당롯데캐슬골든포레.사당해그린",
                "latitude": 37.492323,
                "longitude": 126.963527,
                "x": 60,
                "y": 125
              },
              "subPathId": null
            },
            {
              "pointInformationDto": {
                "name": "숭실대별관앞",
                "latitude": 37.494977,
                "longitude": 126.959951,
                "x": 60,
                "y": 125
              },
              "subPathId": null
            }
          ]
        },
        {
          "subPathId": null,
          "pathId": null,
          "type": "walk",
          "distance": 31,
          "time": 1,
          "stationCount": 0,
          "subwayName": "null",
          "busNo": "null",
          "subwayColor": "#000000",
          "busColor": "#000000",
          "startDto": {
            "name": "숭실대별관앞",
            "latitude": 37.494977,
            "longitude": 126.959951,
            "x": 60,
            "y": 125
          },
          "endDto": {
            "name": "숭실대 정보관",
            "latitude": 37.4947,
            "longitude": 126.9599,
            "x": 60,
            "y": 125
          },
          "midDto": {
            "name": null,
            "latitude": 37.4948385,
            "longitude": 126.9599255,
            "x": 60,
            "y": 125
          },
          "pointDtos": []
        }
      ]
    },
    {
      "pathId": 11,
      "routeRequesterId": null,
      "totalTime": 36,
      "price": 1500,
      "totalDistance": 7328,
      "totalWalkDistance": 338,
      "totalWalkTime": 12,
      "totalRain": 0,
      "busTransitCount": 2,
      "subwayTransitCount": 0,
      "totalTransitCount": 2,
      "busStationCount": 15,
      "subwayStationCount": 0,
      "startDto": {
        "name": "신세계 백화점",
        "latitude": 37.5042,
        "longitude": 127.0044,
        "x": 60,
        "y": 125
      },
      "endDto": {
        "name": "숭실대 정보관",
        "latitude": 37.4947,
        "longitude": 126.9599,
        "x": 60,
        "y": 125
      },
      "midDto": {
        "name": null,
        "latitude": 37.499449999999996,
        "longitude": 126.98215,
        "x": 60,
        "y": 125
      },
      "subPathDtos": [
        {
          "subPathId": null,
          "pathId": null,
          "type": "walk",
          "distance": 245,
          "time": 4,
          "stationCount": 0,
          "subwayName": "null",
          "busNo": "null",
          "subwayColor": "#000000",
          "busColor": "#000000",
          "startDto": {
            "name": "신세계 백화점",
            "latitude": 37.5042,
            "longitude": 127.0044,
            "x": 60,
            "y": 125
          },
          "endDto": {
            "name": "고속터미널",
            "latitude": 37.506305,
            "longitude": 127.005228,
            "x": 60,
            "y": 125
          },
          "midDto": {
            "name": null,
            "latitude": 37.5052525,
            "longitude": 127.00481400000001,
            "x": 60,
            "y": 125
          },
          "pointDtos": []
        },
        {
          "subPathId": null,
          "pathId": null,
          "type": "bus",
          "distance": 3752,
          "time": 15,
          "stationCount": 6,
          "subwayName": "null",
          "busNo": "148",
          "subwayColor": "#000000",
          "busColor": "#0068b7",
          "startDto": {
            "name": "고속터미널",
            "latitude": 37.506305,
            "longitude": 127.005228,
            "x": 60,
            "y": 125
          },
          "endDto": {
            "name": "방배동고개",
            "latitude": 37.486896,
            "longitude": 126.989203,
            "x": 60,
            "y": 125
          },
          "midDto": {
            "name": null,
            "latitude": 37.4966005,
            "longitude": 126.99721550000001,
            "x": 60,
            "y": 125
          },
          "pointDtos": [
            {
              "pointInformationDto": {
                "name": "고속터미널",
                "latitude": 37.506305,
                "longitude": 127.005228,
                "x": 60,
                "y": 125
              },
              "subPathId": null
            },
            {
              "pointInformationDto": {
                "name": "신반포역.세화여중고",
                "latitude": 37.503432,
                "longitude": 126.995732,
                "x": 60,
                "y": 125
              },
              "subPathId": null
            },
            {
              "pointInformationDto": {
                "name": "구반포역.세화고등학교",
                "latitude": 37.50195,
                "longitude": 126.989973,
                "x": 60,
                "y": 125
              },
              "subPathId": null
            },
            {
              "pointInformationDto": {
                "name": "삼호아파트",
                "latitude": 37.49684,
                "longitude": 126.987734,
                "x": 60,
                "y": 125
              },
              "subPathId": null
            },
            {
              "pointInformationDto": {
                "name": "가야메디컬센터",
                "latitude": 37.493327,
                "longitude": 126.989942,
                "x": 60,
                "y": 125
              },
              "subPathId": null
            },
            {
              "pointInformationDto": {
                "name": "서문여고입구",
                "latitude": 37.490311,
                "longitude": 126.98711,
                "x": 60,
                "y": 125
              },
              "subPathId": null
            },
            {
              "pointInformationDto": {
                "name": "방배동고개",
                "latitude": 37.486896,
                "longitude": 126.989203,
                "x": 60,
                "y": 125
              },
              "subPathId": null
            }
          ]
        },
        {
          "subPathId": null,
          "pathId": null,
          "type": "walk",
          "distance": 62,
          "time": 1,
          "stationCount": 0,
          "subwayName": "null",
          "busNo": "null",
          "subwayColor": "#000000",
          "busColor": "#000000",
          "startDto": {
            "name": "방배동고개",
            "latitude": 37.486896,
            "longitude": 126.989203,
            "x": 60,
            "y": 125
          },
          "endDto": {
            "name": "방배고개",
            "latitude": 37.486424,
            "longitude": 126.988824,
            "x": 60,
            "y": 125
          },
          "midDto": {
            "name": null,
            "latitude": 37.4963645,
            "longitude": 126.997026,
            "x": 60,
            "y": 125
          },
          "pointDtos": []
        },
        {
          "subPathId": null,
          "pathId": null,
          "type": "bus",
          "distance": 3238,
          "time": 15,
          "stationCount": 9,
          "subwayName": "null",
          "busNo": "742",
          "subwayColor": "#000000",
          "busColor": "#0068b7",
          "startDto": {
            "name": "방배고개",
            "latitude": 37.486424,
            "longitude": 126.988824,
            "x": 60,
            "y": 125
          },
          "endDto": {
            "name": "숭실대별관앞",
            "latitude": 37.494977,
            "longitude": 126.959951,
            "x": 60,
            "y": 125
          },
          "midDto": {
            "name": null,
            "latitude": 37.4907005,
            "longitude": 126.9743875,
            "x": 60,
            "y": 125
          },
          "pointDtos": [
            {
              "pointInformationDto": {
                "name": "방배고개",
                "latitude": 37.486424,
                "longitude": 126.988824,
                "x": 60,
                "y": 125
              },
              "subPathId": null
            },
            {
              "pointInformationDto": {
                "name": "이수역",
                "latitude": 37.485866,
                "longitude": 126.984637,
                "x": 60,
                "y": 125
              },
              "subPathId": null
            },
            {
              "pointInformationDto": {
                "name": "이수역10번출구",
                "latitude": 37.484907,
                "longitude": 126.98007,
                "x": 60,
                "y": 125
              },
              "subPathId": null
            },
            {
              "pointInformationDto": {
                "name": "남성초등학교",
                "latitude": 37.484325,
                "longitude": 126.978427,
                "x": 60,
                "y": 125
              },
              "subPathId": null
            },
            {
              "pointInformationDto": {
                "name": "남성역골목시장",
                "latitude": 37.483668,
                "longitude": 126.973326,
                "x": 60,
                "y": 125
              },
              "subPathId": null
            },
            {
              "pointInformationDto": {
                "name": "남성역",
                "latitude": 37.484979,
                "longitude": 126.970707,
                "x": 60,
                "y": 125
              },
              "subPathId": null
            },
            {
              "pointInformationDto": {
                "name": "사당중학교",
                "latitude": 37.486678,
                "longitude": 126.968185,
                "x": 60,
                "y": 125
              },
              "subPathId": null
            },
            {
              "pointInformationDto": {
                "name": "총신대",
                "latitude": 37.488787,
                "longitude": 126.966143,
                "x": 60,
                "y": 125
              },
              "subPathId": null
            },
            {
              "pointInformationDto": {
                "name": "사당롯데캐슬골든포레.사당해그린",
                "latitude": 37.492323,
                "longitude": 126.963527,
                "x": 60,
                "y": 125
              },
              "subPathId": null
            },
            {
              "pointInformationDto": {
                "name": "숭실대별관앞",
                "latitude": 37.494977,
                "longitude": 126.959951,
                "x": 60,
                "y": 125
              },
              "subPathId": null
            }
          ]
        },
        {
          "subPathId": null,
          "pathId": null,
          "type": "walk",
          "distance": 31,
          "time": 1,
          "stationCount": 0,
          "subwayName": "null",
          "busNo": "null",
          "subwayColor": "#000000",
          "busColor": "#000000",
          "startDto": {
            "name": "숭실대별관앞",
            "latitude": 37.494977,
            "longitude": 126.959951,
            "x": 60,
            "y": 125
          },
          "endDto": {
            "name": "숭실대 정보관",
            "latitude": 37.4947,
            "longitude": 126.9599,
            "x": 60,
            "y": 125
          },
          "midDto": {
            "name": null,
            "latitude": 37.4948385,
            "longitude": 126.9599255,
            "x": 60,
            "y": 125
          },
          "pointDtos": []
        }
      ]
    },
    {
      "pathId": 12,
      "routeRequesterId": null,
      "totalTime": 38,
      "price": 1500,
      "totalDistance": 6626,
      "totalWalkDistance": 369,
      "totalWalkTime": 12,
      "totalRain": 0,
      "busTransitCount": 2,
      "subwayTransitCount": 0,
      "totalTransitCount": 2,
      "busStationCount": 21,
      "subwayStationCount": 0,
      "startDto": {
        "name": "신세계 백화점",
        "latitude": 37.5042,
        "longitude": 127.0044,
        "x": 60,
        "y": 125
      },
      "endDto": {
        "name": "숭실대 정보관",
        "latitude": 37.4947,
        "longitude": 126.9599,
        "x": 60,
        "y": 125
      },
      "midDto": {
        "name": null,
        "latitude": 37.499449999999996,
        "longitude": 126.98215,
        "x": 60,
        "y": 125
      },
      "subPathDtos": [
        {
          "subPathId": null,
          "pathId": null,
          "type": "walk",
          "distance": 240,
          "time": 4,
          "stationCount": 0,
          "subwayName": "null",
          "busNo": "null",
          "subwayColor": "#000000",
          "busColor": "#000000",
          "startDto": {
            "name": "신세계 백화점",
            "latitude": 37.5042,
            "longitude": 127.0044,
            "x": 60,
            "y": 125
          },
          "endDto": {
            "name": "삼성래미안.이수역방향",
            "latitude": 37.503744,
            "longitude": 127.001745,
            "x": 60,
            "y": 125
          },
          "midDto": {
            "name": null,
            "latitude": 37.503972,
            "longitude": 127.0030725,
            "x": 60,
            "y": 125
          },
          "pointDtos": []
        },
        {
          "subPathId": null,
          "pathId": null,
          "type": "bus",
          "distance": 3351,
          "time": 18,
          "stationCount": 13,
          "subwayName": "null",
          "busNo": "서초13",
          "subwayColor": "#000000",
          "busColor": "#ffc600",
          "startDto": {
            "name": "삼성래미안.이수역방향",
            "latitude": 37.503744,
            "longitude": 127.001745,
            "x": 60,
            "y": 125
          },
          "endDto": {
            "name": "이수역2번출구",
            "latitude": 37.487298,
            "longitude": 126.98248,
            "x": 60,
            "y": 125
          },
          "midDto": {
            "name": null,
            "latitude": 37.495521,
            "longitude": 126.99211249999999,
            "x": 60,
            "y": 125
          },
          "pointDtos": [
            {
              "pointInformationDto": {
                "name": "삼성래미안.이수역방향",
                "latitude": 37.503744,
                "longitude": 127.001745,
                "x": 60,
                "y": 125
              },
              "subPathId": null
            },
            {
              "pointInformationDto": {
                "name": "서래마을입구",
                "latitude": 37.499183,
                "longitude": 126.998311,
                "x": 60,
                "y": 125
              },
              "subPathId": null
            },
            {
              "pointInformationDto": {
                "name": "서래마을.서래글로벌빌리지센터",
                "latitude": 37.497939,
                "longitude": 126.998248,
                "x": 60,
                "y": 125
              },
              "subPathId": null
            },
            {
              "pointInformationDto": {
                "name": "효성빌라",
                "latitude": 37.496261,
                "longitude": 126.998112,
                "x": 60,
                "y": 125
              },
              "subPathId": null
            },
            {
              "pointInformationDto": {
                "name": "방배중학교",
                "latitude": 37.495068,
                "longitude": 126.997653,
                "x": 60,
                "y": 125
              },
              "subPathId": null
            },
            {
              "pointInformationDto": {
                "name": "필리핀대사관",
                "latitude": 37.494143,
                "longitude": 126.995856,
                "x": 60,
                "y": 125
              },
              "subPathId": null
            },
            {
              "pointInformationDto": {
                "name": "방배4동성당",
                "latitude": 37.493836,
                "longitude": 126.993621,
                "x": 60,
                "y": 125
              },
              "subPathId": null
            },
            {
              "pointInformationDto": {
                "name": "함지박사거리",
                "latitude": 37.49323,
                "longitude": 126.991232,
                "x": 60,
                "y": 125
              },
              "subPathId": null
            },
            {
              "pointInformationDto": {
                "name": "빛교회.이수중앙시장",
                "latitude": 37.492327,
                "longitude": 126.988949,
                "x": 60,
                "y": 125
              },
              "subPathId": null
            },
            {
              "pointInformationDto": {
                "name": "카페골목입구",
                "latitude": 37.491655,
                "longitude": 126.98725,
                "x": 60,
                "y": 125
              },
              "subPathId": null
            },
            {
              "pointInformationDto": {
                "name": "노인정",
                "latitude": 37.489456,
                "longitude": 126.987268,
                "x": 60,
                "y": 125
              },
              "subPathId": null
            },
            {
              "pointInformationDto": {
                "name": "서문여고",
                "latitude": 37.487453,
                "longitude": 126.984853,
                "x": 60,
                "y": 125
              },
              "subPathId": null
            },